timestamp_at_cps,detector_time,lon,lat,altitude_gps,fix_type,altitude_amsl,altitude_relative,altitude_local,altitude_terrain,altitude_monotonic,distance_internal,altitude_lidar,integration_time_msec,gamma_counts,gamma_cps,gamma_cps_error,roll,pitch,yaw,rollspeed,pitchspeed,yawspeed,groundspeed,wind_horiz,spectrum_slice_number,id_score_cs137,id_score_ba133,id_score_co60,id_score_co57,id_score_am241,doserate_value[uSv/h],doserate_ground_value[uSv/h],doserate_ground_error[uSv/h]
1715765374,948032000,16.513459,47.9757416,188.369,3,189.6772919,-0.001670361,2.390944719,2.190944672,177.4925385,0.15,0,0,0,-1,-1,-0.008556166,-0.000657664,0.938861728,0.006190563,-0.010540877,-0.003160478,0.01,0,0,0.035965656,0,0.009457298,0.052077647,0.12801152,0.030264154,5.54E-08,0.000408839
1715765374,948232000,16.513459,47.9757416,188.374,3,189.6774292,-0.001526117,2.391088963,2.191088915,177.0776825,0.15,0,200,35,175,29.58039892,-0.008487214,-0.000241181,0.938946426,0.005695542,0.01070776,-0.004221032,0.01,0.999796911,0,0.035965656,0,0.009457298,0.052077647,0.12801152,0.030264154,5.54E-08,0.000408839
1715765374,948432000,16.513459,47.9757417,188.374,3,189.6783142,-0.000647068,2.391968012,2.191967964,176.9561462,0.15,0,200,36,180,30,-0.008593081,-0.000465154,0.938787818,0.002533845,0.004220496,-0.004948617,0,0.999796911,0,0.035965656,0,0.009457298,0.052077647,0.12801152,0.030264154,5.54E-08,0.000408839
1715765374,948632000,16.513459,47.9757417,188.377,3,189.6780701,-0.000896931,2.391718149,2.191718102,176.2136383,0.15,0,200,45,225,33.54101966,-0.008706154,-0.000550618,0.938863337,0.001647826,0.001968171,-0.000732888,0,0.999796911,0,0.035965656,0,0.009457298,0.052077647,0.12801152,0.030264154,5.54E-08,0.000408839
1715765375,948832000,16.513459,47.9757417,188.377,3,189.6780701,-0.000896931,2.391718149,2.191718102,176.2136383,0.15,0,200,43,215,32.78719262,-0.008611298,-0.000322876,0.938830256,0.006889097,0.016018927,0.000997992,0.01,0.999796911,0,0.035965656,0,0.009457298,0.052077647,0.12801152,0.030264154,5.54E-08,0.000408839
1715765375,949032000,16.513459,47.9757417,188.377,3,189.6797333,0.000778675,2.393393755,2.192284822,176.0075531,0.15,0,200,31,155,27.83882181,-0.008573138,-0.001183629,0.938638628,0.003173433,-0.032216661,-0.00868719,0.01,0.999796911,0,0.035965656,0,0.009457298,0.052077647,0.12801152,0.030264154,5.54E-08,0.000408839
1715765375,949232000,16.513459,47.9757417,188.378,3,189.6812592,0.002300501,2.394915581,2.192284822,175.880722,0.15,0,200,36,180,30,-0.00801352,-7.73E-05,0.938547552,-0.005583397,0.012707137,-0.006607438,0.01,0.987498726,0,0.035965656,0,0.009457298,0.052077647,0.12801152,0.030264154,5.54E-08,0.000408839
1715765376,949746000,16.513459,47.9757417,188.382,3,189.6799774,0.00101757,2.39363265,2.191028357,175.0827332,0.15,0.119999997,514,107,208.1712062,20.1246701,0.004179026,0.00770215,0.939639568,0.055504031,0.0387755,0.00947162,0.05,0.987498726,1,0.035965656,0,0.009457298,0.052077647,0.12801152,0.030264154,5.54E-08,0.000408839
1715765376,949832000,16.513459,47.9757417,188.382,3,189.6799774,0.00101757,2.39363265,2.191028357,175.0827332,0.15,0.119999997,86,17,197.6744186,47.94308867,0.006095884,0.009275437,0.939820349,0.009262252,-0.006986727,0.005106527,0.05,0.987498726,1,0.035965656,0,0.009457298,0.052077647,0.12801152,0.030264154,5.54E-08,0.000408839
1715765376,950032000,16.5134591,47.9757417,188.396,3,189.687149,0.008181095,2.400796175,2.180239201,174.4432831,0.15,0.119999997,200,40,200,31.6227766,0.002004643,0.010594476,0.940896571,-0.050658267,-0.012682779,0.002810702,0.05,0.987498726,1,0.035965656,0,0.009457298,0.052077647,0.12801152,0.030264154,5.54E-08,0.000408839
1715765376,950232000,16.513459,47.9757415,188.421,3,189.687149,0.008181095,2.400796175,2.180239201,174.4432831,0.15,0.119999997,200,43,215,32.78719262,-0.014028729,0.004316938,0.942695618,-0.082453631,-0.021857016,0.011676619,0.13,0.975071336,1,0.035965656,0,0.009457298,0.052077647,0.12801152,0.030264154,5.54E-08,0.000408839
1715765376,950432000,16.5134591,47.9757413,188.481,3,189.7429047,0.063937187,2.456552267,2.180239201,175.1091614,0.16,0.119999997,200,26,130,25.49509757,-0.0317818,-0.001910317,0.94426322,-0.035782959,-0.022536118,0.002514736,0.12,0.975071336,1,0.035965656,0,0.009457298,0.052077647,0.12801152,0.030264154,5.54E-08,0.000408839
1715765376,950632000,16.513459,47.9757411,188.56,3,189.8137817,0.134820223,2.527435303,2.180239201,175.7697449,0.18,0.119999997,200,40,200,31.6227766,-0.034307834,-0.010295535,0.943803489,-0.004457676,-0.034457006,0.000156794,0.1,0.975071336,1,0.035965656,0,0.009457298,0.052077647,0.12801152,0.030264154,5.54E-08,0.000408839
1715765377,950832000,16.5134589,47.975741,188.67,3,189.9066772,0.227715254,2.620330334,2.180239201,179.0858459,0.28,0.119999997,200,42,210,32.40370349,-0.038395397,-0.019275898,0.942981899,0.008036487,-0.09265577,-0.005061857,0.11,0.975071336,1,0.035965656,0,0.009457298,0.052077647,0.12801152,0.030264154,5.54E-08,0.000408839
1715765377,951032000,16.5134587,47.975741,188.793,3,190.0930786,0.414115429,2.806730509,2.180239201,179.1598358,0.28,0.119999997,200,48,240,34.64101615,-0.027389532,-0.026533961,0.939962983,0.051600602,0.015987843,-0.016249759,0.05,0.975071336,1,0.035965656,0,0.009457298,0.052077647,0.12801152,0.030264154,5.54E-08,0.000408839
1715765377,951232000,16.5134586,47.975741,188.952,3,190.0930786,0.414115429,2.806730509,2.180239201,179.1598358,0.51,0.119999997,200,34,170,29.15475947,-0.009464285,-0.023469282,0.937157452,0.089883454,0.046660881,-0.02174199,0.07,0.979036233,1,0.035965656,0,0.009457298,0.052077647,0.12801152,0.030264154,5.54E-08,0.000408839
1715765377,951432000,16.5134585,47.9757412,189.134,3,190.3199005,0.640933037,3.033548117,2.180239201,180.0872803,0.66,0.119999997,200,40,200,31.6227766,0.008395568,-0.014387821,0.934033155,0.074196078,0.053649314,-0.027451511,0.06,0.979036233,1,0.035965656,0,0.009457298,0.052077647,0.12801152,0.030264154,5.54E-08,0.000408839
1715765377,951632000,16.5134585,47.9757413,189.323,3,190.4972687,0.818304777,3.210919857,2.290129185,180.2220459,0.8,0.119999997,200,43,215,32.78719262,0.010589472,-0.00584986,0.931262851,-0.014320212,0.054443128,-0.012680484,0.09,0.979036233,1,0.035965656,0,0.009457298,0.052077647,0.12801152,0.030264154,5.54E-08,0.000408839
1715765378,951832000,16.5134586,47.9757414,189.54,3,190.8197937,1.140835762,3.533450842,2.319223881,180.4730682,1.05,0.119999997,200,51,255,35.70714214,0.009141702,0.00130318,0.927844763,-0.005539677,0.009603032,-0.010381024,0.05,0.979036233,1,0.035965656,0,0.009457298,0.052077647,0.12801152,0.030264154,5.54E-08,0.000408839
1715765378,952255000,16.5134592,47.9757413,190.184,3,191.4402618,1.761297464,4.153912544,2.358241558,181.3080444,1.62,1.379999995,423,100,236.4066194,23.64066194,-0.025571886,0.009920916,0.927723408,-0.05356992,0.05697763,0.001266425,0.14,0.976111472,2,0.017246455,0,0.061675953,0.042721377,0.135478053,0.031427257,0.000167426,0.000108751
1715765378,952432000,16.5134593,47.9757412,190.323,3,191.4402618,1.761297464,4.153912544,2.358241558,181.3080444,1.62,1.379999995,177,41,231.6384181,36.17584315,-0.029952468,0.011069297,0.927720428,-0.048722696,0.001800429,0.001738674,0.09,0.976111472,2,0.017246455,0,0.061675953,0.042721377,0.135478053,0.031427257,0.000167426,0.000108751
1715765378,952632000,16.5134595,47.9757412,190.585,3,191.8366699,2.157711744,4.550326824,2.370880842,181.6964569,2.02,1.379999995,200,51,255,35.70714214,-0.035341203,0.007151497,0.927946746,0.007449713,-0.021677976,0.004884525,0.1,0.976111472,2,0.017246455,0,0.061675953,0.042721377,0.135478053,0.031427257,0.000167426,0.000108751
1715765379,952832000,16.5134595,47.9757412,190.863,3,192.1195374,2.440573454,4.833188534,2.378988266,181.7942352,2.02,1.379999995,200,48,240,34.64101615,-0.030582512,-9.81E-05,0.928501129,0.059105698,-0.041584909,0.005379464,0.02,0.976111472,2,0.017246455,0,0.061675953,0.042721377,0.135478053,0.031427257,0.000167426,0.000108751
1715765379,953032000,16.5134595,47.9757411,191.135,3,192.3879547,2.708994627,5.101609707,2.388621807,182.037323,2.42,1.379999995,200,54,270,36.74234614,-0.021107625,-0.005776817,0.929294884,0.026696457,-0.008335132,0.001001367,0.07,0.976111472,2,0.017246455,0,0.061675953,0.042721377,0.135478053,0.031427257,0.000167426,0.000108751
1715765379,953232000,16.5134595,47.9757412,191.395,3,192.3879547,2.708994627,5.101609707,2.388621807,182.037323,2.69,1.379999995,200,40,200,31.6227766,-0.012844522,-0.008108739,0.929680347,0.033190448,-0.009212409,0.010328884,0.02,0.974189146,2,0.017246455,0,0.061675953,0.042721377,0.135478053,0.031427257,0.000167426,0.000108751
1715765379,953432000,16.5134595,47.9757412,191.674,3,192.7901306,3.111167192,5.503782272,2.402358532,182.1800079,3.09,1.379999995,200,34,170,29.15475947,-0.007368098,0.003434698,0.931085348,0.000727326,0.068845883,0.011367325,0.02,0.974189146,2,0.017246455,0,0.061675953,0.042721377,0.135478053,0.031427257,0.000167426,0.000108751
1715765379,953632000,16.5134595,47.9757412,191.95,3,193.212616,3.533651114,5.926266193,2.406607866,182.703186,3.09,1.379999995,200,42,210,32.40370349,-0.007390035,0.016578401,0.931880832,0.012428435,0.033588558,0.006802308,0.03,0.974189146,2,0.017246455,0,0.061675953,0.042721377,0.135478053,0.031427257,0.000167426,0.000108751
1715765380,953832000,16.5134594,47.9757412,192.228,3,193.4918518,3.812897921,6.205513,2.396130323,183.0202637,3.6,1.379999995,200,50,250,35.35533906,-0.010919113,0.0187687,0.933736444,-0.028922938,-0.039439391,0.008699403,0.05,0.974189146,2,0.017246455,0,0.061675953,0.042721377,0.135478053,0.031427257,0.000167426,0.000108751
1715765380,954032000,16.5134593,47.9757411,192.516,3,193.4918518,3.812897921,6.205513,2.396130323,183.0202637,3.86,1.379999995,200,47,235,34.278273,-0.015931118,0.007124142,0.935563982,-0.037531208,-0.113920137,0.010046332,0.1,0.974189146,2,0.017246455,0,0.061675953,0.042721377,0.135478053,0.031427257,0.000167426,0.000108751
1715765380,954232000,16.5134591,47.975741,192.801,3,193.9130554,4.234086037,6.626701355,2.389227867,183.5170288,4.33,1.379999995,200,38,190,30.82207001,-0.020122368,-0.013989874,0.939514756,-0.012584476,-0.124739036,0.020228431,0.13,0.979392568,2,0.017246455,0,0.061675953,0.042721377,0.135478053,0.031427257,0.000167426,0.000108751
1715765381,954764000,16.5134586,47.9757407,193.669,3,194.7794495,5.100487709,7.493103027,2.34689045,184.2462921,5.51,4.840000153,532,92,172.9323308,18.02944182,-0.010193309,-0.022013277,0.954167545,0.017846316,0.049256757,0.018546075,0.01,0.979392568,3,0.008447628,0,0.116102639,0.015775736,0.127898845,0.036323236,0.03176612,0.011393682
1715765381,954832000,16.5134586,47.9757407,193.669,3,194.7794495,5.100487709,7.493103027,2.34689045,184.2462921,5.51,4.840000153,68,12,176.4705882,50.94267081,-0.010193309,-0.022013277,0.954167545,0.017846316,0.049256757,0.018546075,0.01,0.979392568,3,0.008447628,0,0.116102639,0.015775736,0.127898845,0.036323236,0.03176612,0.011393682
1715765381,955032000,16.5134587,47.9757407,193.966,3,195.0662231,5.387259483,7.779874325,2.332635403,184.4946899,5.51,4.840000153,200,43,215,32.78719262,-0.010137108,-0.012498389,0.956150115,-0.0169215,0.052589234,0.012921756,0.06,0.979392568,3,0.008447628,0,0.116102639,0.015775736,0.127898845,0.036323236,0.03176612,0.011393682
1715765381,955232000,16.5134588,47.9757407,194.26,3,195.4974365,5.818480492,8.21109581,2.29519558,185.2424622,6.19,4.840000153,200,52,260,36.05551275,-0.017087918,-0.00554043,0.958716929,-0.041640438,0.04762831,0.01588632,0.04,0.982499035,3,0.008447628,0,0.116102639,0.015775736,0.127898845,0.036323236,0.03176612,0.011393682
1715765381,955432000,16.513459,47.9757408,194.553,3,195.4974365,5.818480492,8.21109581,2.29519558,185.2424622,6.72,4.840000153,200,45,225,33.54101966,-0.022344397,9.66E-05,0.962243617,-0.003538923,-0.003349384,0.015253211,0.13,0.982499035,3,0.008447628,0,0.116102639,0.015775736,0.127898845,0.036323236,0.03176612,0.011393682
1715765381,955632000,16.5134591,47.9757408,194.843,3,195.931427,6.252467155,8.645082474,2.240766525,185.3825073,6.72,4.840000153,200,54,270,36.74234614,-0.023224592,0.004624726,0.965213597,0.021180993,0.04969747,0.008527748,0.08,0.982499035,3,0.008447628,0,0.116102639,0.015775736,0.127898845,0.036323236,0.03176612,0.011393682
1715765382,955832000,16.5134591,47.9757409,195.133,3,195.931427,6.252467155,8.645082474,2.240766525,185.3825073,7.22,4.840000153,200,27,135,25.98076211,-0.023271773,0.005325653,0.966599226,-0.027290255,0.02035486,0.007025291,0.03,0.982499035,3,0.008447628,0,0.116102639,0.015775736,0.127898845,0.036323236,0.03176612,0.011393682
1715765382,956032000,16.5134591,47.975741,195.427,3,196.3733978,6.69443512,9.087050438,2.156380653,186.0140228,7.83,4.840000153,200,38,190,30.82207001,-0.023594249,-0.004941016,0.968963921,7.07E-05,-0.044742953,0.014977775,0.03,0.982499035,3,0.008447628,0,0.116102639,0.015775736,0.127898845,0.036323236,0.03176612,0.011393682
1715765382,956232000,16.513459,47.9757411,195.718,3,196.8045807,7.125624657,9.518239975,2.106328487,186.54776,8.18,4.840000153,200,51,255,35.70714214,-0.017489577,-0.011120413,0.972326875,0.036355969,-0.021915443,0.017379284,0.05,0.982195714,3,0.008447628,0,0.116102639,0.015775736,0.127898845,0.036323236,0.03176612,0.011393682
1715765382,956432000,16.513459,47.9757413,196.006,3,197.2351379,7.556181908,9.948797226,2.106328487,186.9176788,8.18,4.840000153,200,48,240,34.64101615,-0.00564157,-0.012454243,0.974397719,0.071546674,-0.010307272,0.007836488,0.17,0.982195714,3,0.008447628,0,0.116102639,0.015775736,0.127898845,0.036323236,0.03176612,0.011393682
1715765382,956632000,16.513459,47.9757414,196.294,3,197.2351379,7.556181908,9.948797226,2.106328487,186.9176788,8.8,4.840000153,200,41,205,32.01562119,0.00132626,-0.008763596,0.976405919,0.059564762,0.043255478,0.017236611,0.12,0.982195714,3,0.008447628,0,0.116102639,0.015775736,0.127898845,0.036323236,0.03176612,0.011393682
1715765383,956832000,16.5134591,47.9757415,196.577,3,197.5168915,7.83792305,10.23053837,2.106328011,187.1713409,8.98,4.840000153,200,45,225,33.54101966,0.00899759,0.009128817,0.977646291,0.014009045,0.054364119,-0.000828586,0.13,0.982195714,3,0.008447628,0,0.116102639,0.015775736,0.127898845,0.036323236,0.03176612,0.011393682
1715765383,957276000,16.5134592,47.9757416,197.186,3,198.2685242,8.589556694,10.98217201,2.106328964,187.9666901,9,8.409999847,444,83,186.9369369,20.51899455,-0.003166792,0.010672115,0.970433652,-0.05110142,-0.09035068,-0.02906977,0.09,0.969794448,4,0.045363038,0,0.156660229,0,0.107953559,0.02758812,0.191574378,0.097114359
1715765383,957432000,16.5134592,47.9757416,197.294,3,198.2685242,8.589556694,10.98217201,2.106328964,187.9666901,9,8.409999847,156,36,230.7692308,38.46153846,-0.005774566,0.008065612,0.969415367,-0.059164785,-0.05098293,-0.019228909,0.03,0.969794448,4,0.045363038,0,0.156660229,0,0.107953559,0.02758812,0.191574378,0.097114359
1715765383,957632000,16.5134593,47.9757415,197.492,3,198.5882568,8.909294128,11.30190945,2.106328011,188.1252289,9,8.409999847,200,31,155,27.83882181,-0.016526407,-0.001609924,0.967059612,-0.025166856,-0.02577842,-0.007790003,0.03,0.969794448,4,0.045363038,0,0.156660229,0,0.107953559,0.02758812,0.191574378,0.097114359
1715765384,957832000,16.5134593,47.9757414,197.674,3,198.7837677,9.104810715,11.49742603,2.106328011,188.262619,9,8.409999847,200,47,235,34.278273,-0.022633184,-0.003540267,0.96507901,-0.012750393,0.014023355,-0.010112132,0,0.969794448,4,0.045363038,0,0.156660229,0,0.107953559,0.02758812,0.191574378,0.097114359
1715765384,958032000,16.5134594,47.9757414,197.852,3,198.9666443,9.287686348,11.68030167,2.106328964,188.5374298,9,8.409999847,200,46,230,33.91164992,-0.023556244,0.003729014,0.962029338,0.00764951,0.01436116,-0.019036131,0.05,0.969794448,4,0.045363038,0,0.156660229,0,0.107953559,0.02758812,0.191574378,0.097114359
1715765384,958232000,16.5134594,47.9757414,198.005,3,199.1918945,9.512938499,11.90555382,2.106328964,188.6378326,9,8.409999847,200,34,170,29.15475947,-0.016899947,0.005802686,0.957617879,0.053627968,0.026940908,-0.022113429,0.04,0.954286246,4,0.045363038,0,0.156660229,0,0.107953559,0.02758812,0.191574378,0.097114359
1715765384,958432000,16.5134594,47.9757415,198.136,3,199.3192596,9.640301704,12.03291702,2.106328964,189.2799072,9,8.409999847,200,32,160,28.28427125,-0.009749853,0.007338784,0.953064561,0.01946827,-0.016692812,-0.018437089,0.03,0.954286246,4,0.045363038,0,0.156660229,0,0.107953559,0.02758812,0.191574378,0.097114359
1715765384,958632000,16.5134595,47.9757415,198.246,3,199.3192596,9.640301704,12.03291702,2.106328964,189.2799072,9,8.409999847,200,49,245,35,-0.00699159,0.009571729,0.949200213,0.004154395,0.045642711,-0.014838059,0.05,0.954286246,4,0.045363038,0,0.156660229,0,0.107953559,0.02758812,0.191574378,0.097114359
1715765385,958832000,16.5134595,47.9757416,198.333,3,199.4760437,9.797074318,12.18968964,2.106328964,189.0579681,9,8.409999847,200,33,165,28.72281323,-0.007327902,0.013968018,0.946494281,0.003656278,0.017126871,-0.003902096,0.03,0.954286246,4,0.045363038,0,0.156660229,0,0.107953559,0.02758812,0.191574378,0.097114359
1715765385,959032000,16.5134596,47.9757416,198.372,3,199.4760437,9.797074318,12.18968964,2.106328964,189.0579681,9,8.409999847,200,46,230,33.91164992,-0.007319334,0.018621549,0.94524616,-0.018288977,0.031520132,-0.004735812,0.02,0.954286246,4,0.045363038,0,0.156660229,0,0.107953559,0.02758812,0.191574378,0.097114359
1715765385,959232000,16.5134596,47.9757417,198.465,3,199.588913,9.909946442,12.30256176,2.106328011,189.1028748,9,8.409999847,200,47,235,34.278273,-0.007443674,0.019453153,0.945757747,0.002583928,-0.005761167,0.005177522,0.02,0.94018401,4,0.045363038,0,0.156660229,0,0.107953559,0.02758812,0.191574378,0.097114359
1715765386,959784000,16.5134598,47.9757418,198.508,3,199.7052155,10.02624989,12.4188652,2.106328964,189.285202,9,8.409999847,552,114,206.5217391,19.34253307,0.025998162,-0.201106936,0.948877454,0.218900651,-0.501260519,0.01796104,0.17,0.94018401,4,0.045363038,0,0.156660229,0,0.107953559,0.02758812,0.191574378,0.097114359
1715765386,959832000,16.5134598,47.9757418,198.508,3,199.7052155,10.02624989,12.4188652,2.106328964,189.285202,9,8.409999847,48,8,166.6666667,58.9255651,0.025998162,-0.201106936,0.948877454,0.218900651,-0.501260519,0.01796104,0.17,0.94018401,4,0.045363038,0,0.156660229,0,0.107953559,0.02758812,0.191574378,0.097114359
1715765386,960032000,16.5134602,47.975742,198.496,3,199.7052155,10.02624989,12.4188652,2.106328964,189.285202,9,8.409999847,200,26,130,25.49509757,0.049209662,-0.251482189,0.947892547,0.254994035,-0.440222502,0.025855165,0.34,0.94018401,4,0.045363038,0,0.156660229,0,0.107953559,0.02758812,0.191574378,0.097114359
1715765386,960232000,16.5134617,47.9757426,198.466,3,199.6869812,10.00802231,12.40063763,2.106328011,189.2693481,9,8.409999847,200,30,150,27.38612788,0.100505352,-0.331153899,0.945552707,0.275330573,-0.269269496,0.038774006,0.78,0.929456717,4,0.045363038,0,0.156660229,0,0.107953559,0.02758812,0.191574378,0.097114359
1715765386,960432000,16.5134648,47.9757434,198.451,3,199.6703491,9.991384506,12.38399982,2.106328011,189.3380432,9,8.409999847,200,47,235,34.278273,0.140416473,-0.355539322,0.945564508,0.172127575,0.023260897,0.028655516,1.4,0.929456717,4,0.045363038,0,0.156660229,0,0.107953559,0.02758812,0.191574378,0.097114359
1715765386,960632000,16.5134698,47.9757446,198.439,3,199.6703491,9.991384506,12.38399982,2.106328011,189.3380432,9,8.409999847,200,40,200,31.6227766,0.150760844,-0.339201629,0.958468616,-0.012277236,0.130082056,0.019933131,2.09,0.929456717,4,0.045363038,0,0.156660229,0,0.107953559,0.02758812,0.191574378,0.097114359
1715765387,960832000,16.5134767,47.975746,198.447,3,199.6532593,9.974290848,12.36690617,2.106328011,188.8624268,9,8.409999847,200,39,195,31.22498999,0.137864694,-0.309730947,0.973063111,-0.091933951,0.171361104,0.022675574,2.83,0.929456717,4,0.045363038,0,0.156660229,0,0.107953559,0.02758812,0.191574378,0.097114359
1715765387,961032000,16.5134852,47.9757476,198.458,3,199.6470795,9.968121529,12.36073685,2.106328964,188.917923,9,8.409999847,200,38,190,30.82207001,0.111745454,-0.295014828,0.983702898,-0.174969226,0.067086756,0.033135373,3.46,0.929456717,4,0.045363038,0,0.156660229,0,0.107953559,0.02758812,0.191574378,0.097114359
1715765387,961232000,16.5134952,47.9757493,198.464,3,199.6443634,9.965398788,12.35801411,0,188.9549103,9,8.409999847,200,32,160,28.28427125,0.073325172,-0.282101363,0.993114054,-0.180777863,0.197415665,0.034913693,3.94,0.90170644,4,0.045363038,0,0.156660229,0,0.107953559,0.02758812,0.191574378,0.097114359
1715765387,961432000,16.5135063,47.9757514,198.487,3,199.6507416,9.971782684,12.364398,0,188.4819489,9,8.409999847,200,44,220,33.1662479,0.037215259,-0.25109598,1.005135775,-0.257164687,0.146664441,0.043631505,4.4,0.90170644,4,0.045363038,0,0.156660229,0,0.107953559,0.02758812,0.191574378,0.097114359
1715765387,961632000,16.5135184,47.9757537,198.511,3,199.662323,9.983355522,12.37597084,0,188.2362061,9,8.409999847,200,39,195,31.22498999,0.003230301,-0.200082257,1.013323188,-0.171016753,0.220094264,0.042159472,4.73,0.90170644,4,0.045363038,0,0.156660229,0,0.107953559,0.02758812,0.191574378,0.097114359
1715765388,961832000,16.513531,47.9757563,198.547,3,199.6760101,9.997051239,12.38966656,0,188.5268555,9,8.409999847,200,43,215,32.78719262,-0.011584943,-0.122927025,1.026087523,0.018305611,0.420302391,0.226680115,4.96,0.90170644,4,0.045363038,0,0.156660229,0,0.107953559,0.02758812,0.191574378,0.097114359
1715765388,962295000,16.513569,47.975765,198.61,3,199.7016296,10.02266598,12.4152813,0,188.3128357,9,10.06000042,463,87,187.9049676,20.14552711,0.037979245,-0.002271612,1.211324096,0.013867218,-0.103221424,0.189115867,4.89,0.850775781,5,0.099102823,0,0.188543902,0.016182503,0.063373654,0.028822817,0.692049337,0.301201221
1715765388,962432000,16.513569,47.975765,198.61,3,199.7081909,10.02923489,12.4218502,0,188.1939392,9,10.06000042,137,36,262.7737226,43.79562044,0.037979245,-0.002271612,1.211324096,0.013867218,-0.103221424,0.189115867,4.89,0.850775781,5,0.099102823,0,0.188543902,0.016182503,0.063373654,0.028822817,0.692049337,0.301201221
1715765388,962632000,16.5135811,47.9757677,198.618,3,199.7123718,10.03341103,12.42602634,0,188.5559235,9,10.06000042,200,57,285,37.74917218,0.029438667,-0.043213472,1.239237309,-0.014598248,-0.19966276,0.123235561,4.74,0.850775781,5,0.099102823,0,0.188543902,0.016182503,0.063373654,0.028822817,0.692049337,0.301201221
1715765389,962832000,16.5135931,47.9757704,198.621,3,199.7123718,10.03341103,12.42602634,0,188.5559235,9,10.06000042,200,59,295,38.40572874,0.027621999,-0.083028853,1.258206606,0.011491044,-0.117627494,0.088996641,4.68,0.850775781,5,0.099102823,0,0.188543902,0.016182503,0.063373654,0.028822817,0.692049337,0.301201221
1715765389,963032000,16.513605,47.975773,198.616,3,199.7118683,10.03291321,12.42552853,0,188.5532837,9,10.06000042,200,69,345,41.53311931,0.023618836,-0.112826876,1.267894387,-0.062400114,-0.100727879,0.020921659,4.7,0.850775781,5,0.099102823,0,0.188543902,0.016182503,0.063373654,0.028822817,0.692049337,0.301201221
1715765389,963232000,16.5136171,47.9757756,198.61,3,199.704834,10.02587414,12.41848946,0,188.5506439,9,10.06000042,200,35,175,29.58039892,0.013539337,-0.124327585,1.270746827,-0.002129326,0.028353285,0.010548703,4.75,0.781335745,5,0.099102823,0,0.188543902,0.016182503,0.063373654,0.028822817,0.692049337,0.301201221
1715765389,963432000,16.5136294,47.9757783,198.608,3,199.6891022,10.01013851,12.40275383,0,188.5982056,9,10.06000042,200,38,190,30.82207001,0.015406972,-0.114150666,1.273509026,0.036832888,0.10130138,0.009144993,4.84,0.781335745,5,0.099102823,0,0.188543902,0.016182503,0.063373654,0.028822817,0.692049337,0.301201221
1715765389,963632000,16.5136419,47.975781,198.608,3,199.6806183,10.00165749,12.3942728,0,188.4793091,9,10.06000042,200,55,275,37.08099244,0.015189097,-0.095644452,1.273062944,0.048614353,0.160435051,-0.002314481,4.9,0.781335745,5,0.099102823,0,0.188543902,0.016182503,0.063373654,0.028822817,0.692049337,0.301201221
1715765390,963832000,16.5136545,47.9757838,198.61,3,199.6806183,10.00165749,12.3942728,0,188.4793091,9,10.06000042,200,34,170,29.15475947,0.018642018,-0.076299906,1.27112186,-0.05534545,0.068546675,-0.021463819,4.98,0.781335745,5,0.099102823,0,0.188543902,0.016182503,0.063373654,0.028822817,0.692049337,0.301201221
1715765390,964032000,16.5136671,47.9757866,198.619,3,199.6669006,9.987931252,12.38054657,0,188.2203369,9,10.06000042,200,51,255,35.70714214,0.01238618,-0.066337079,1.268237948,0.023340208,0.062155776,-0.007122021,4.97,0.781335745,5,0.099102823,0,0.188543902,0.016182503,0.063373654,0.028822817,0.692049337,0.301201221
1715765390,964232000,16.5136797,47.9757893,198.636,3,199.6659851,9.9870224,12.37963772,0,188.1516418,9,10.06000042,200,48,240,34.64101615,0.014552871,-0.070974819,1.268061876,0.009854361,-0.091680735,0.003551371,4.92,0.720851474,5,0.099102823,0,0.188543902,0.016182503,0.063373654,0.028822817,0.692049337,0.301201221
1715765391,964805000,16.5137173,47.9757976,198.664,3,199.6634064,9.984442711,12.37705803,0,188.3339539,9,10.27999973,573,134,233.8568935,20.20215864,0.019678501,-0.084505707,1.266728878,0.005301773,-0.037863944,-0.00371221,4.92,0.720851474,6,0.112947237,0,0.201496725,0.073648519,0.031337948,0.037228761,1.933009849,0.441894898
1715765391,964832000,16.5137235,47.9757991,198.664,3,199.6634064,9.984442711,12.37705803,0,188.3339539,9,10.27999973,27,7,259.2592593,97.9907893,0.019678501,-0.084505707,1.266728878,0.005301773,-0.037863944,-0.00371221,4.92,0.720851474,6,0.112947237,0,0.201496725,0.073648519,0.031337948,0.037228761,1.933009849,0.441894898
1715765391,965032000,16.5137298,47.9758005,198.668,3,199.6634064,9.984442711,12.37705803,0,188.3339539,9,10.27999973,200,48,240,34.64101615,0.022851352,-0.090056621,1.266382575,0.01099694,-0.157572851,0.001504065,4.96,0.720851474,6,0.112947237,0,0.201496725,0.073648519,0.031337948,0.037228761,1.933009849,0.441894898
1715765391,965232000,16.5137424,47.9758033,198.677,3,199.6623535,9.983391762,12.37600708,0,188.0697327,9,10.27999973,200,51,255,35.70714214,0.024195319,-0.089863881,1.264767051,-0.000216914,0.022419456,-0.017479293,4.97,0.650216267,6,0.112947237,0,0.201496725,0.073648519,0.031337948,0.037228761,1.933009849,0.441894898
1715765391,965432000,16.513755,47.9758061,198.682,3,199.6575775,9.978611946,12.37122726,0,188.2256317,9,10.27999973,200,56,280,37.41657387,0.028214082,-0.085179299,1.263962388,0.018681157,-0.051252633,0.001165231,4.95,0.650216267,6,0.112947237,0,0.201496725,0.073648519,0.031337948,0.037228761,1.933009849,0.441894898
1715765391,965632000,16.5137677,47.9758089,198.686,3,199.6542816,9.975317001,12.36793232,0,188.473999,9,10.27999973,200,50,250,35.35533906,0.026626285,-0.087731823,1.261560202,-0.039722212,0.00324825,-0.016384855,4.98,0.650216267,6,0.112947237,0,0.201496725,0.073648519,0.031337948,0.037228761,1.933009849,0.441894898
1715765392,965832000,16.5137805,47.9758118,198.683,3,199.6452484,9.966290474,12.35890579,0,188.7910767,9,10.27999973,200,41,205,32.01562119,0.023828704,-0.086115964,1.258223772,0.051326498,0.011546105,-0.011392988,5.02,0.650216267,6,0.112947237,0,0.201496725,0.073648519,0.031337948,0.037228761,1.933009849,0.441894898
1715765392,966032000,16.5137932,47.9758146,198.679,3,199.6379089,9.958944321,12.35155964,0,188.7435303,9,10.27999973,200,46,230,33.91164992,0.027079707,-0.07545352,1.255674839,-0.023213157,-0.010024916,-0.007724612,5.02,0.650216267,6,0.112947237,0,0.201496725,0.073648519,0.031337948,0.037228761,1.933009849,0.441894898
1715765392,966232000,16.513806,47.9758174,198.682,3,199.6379089,9.958944321,12.35155964,0,188.7435303,9,10.27999973,200,44,220,33.1662479,0.026843224,-0.066790305,1.253129959,-0.009531925,0.064408913,-0.022202354,5.04,0.593117042,6,0.112947237,0,0.201496725,0.073648519,0.031337948,0.037228761,1.933009849,0.441894898
1715765392,966432000,16.5138189,47.9758201,198.685,3,199.6365051,9.957543373,12.35015869,0,188.9020691,9,10.27999973,200,46,230,33.91164992,0.02410079,-0.058087591,1.250340462,-0.026367592,-0.010639645,-0.015859837,5.02,0.593117042,6,0.112947237,0,0.201496725,0.073648519,0.031337948,0.037228761,1.933009849,0.441894898
1715765392,966632000,16.5138317,47.9758228,198.694,3,199.6352386,9.956276894,12.34889221,0,188.4555206,9,10.27999973,200,48,240,34.64101615,0.01701545,-0.047798574,1.250507355,-0.012795025,-0.061035831,0.012639497,4.96,0.593117042,6,0.112947237,0,0.201496725,0.073648519,0.031337948,0.037228761,1.933009849,0.441894898
1715765393,966832000,16.5138444,47.9758254,198.711,3,199.6457977,9.966832161,12.35944748,0,188.4793091,9,10.27999973,200,20,100,22.36067977,0.01186177,-0.053659689,1.253371954,-0.088267699,-0.023889536,0.015037945,4.95,0.593117042,6,0.112947237,0,0.201496725,0.073648519,0.031337948,0.037228761,1.933009849,0.441894898
1715765393,967314000,16.5138758,47.975832,198.744,3,199.6587067,9.979748726,12.37236404,0,188.8835754,9,10.47000027,482,121,251.0373444,22.82157676,0.000985283,0.000982459,1.262434244,-0.070731752,0.497223884,-0.017128278,4.9,0.561533218,7,0.094268228,0,0.178992497,0.134923921,0.074036515,0.035945952,1.874647793,0.461174936
1715765393,967432000,16.513882,47.9758333,198.749,3,199.6609039,9.981945038,12.37456036,0,188.8967743,9,10.47000027,118,31,262.7118644,47.18444375,0.000985283,0.000982459,1.262434244,-0.070731752,0.497223884,-0.017128278,4.89,0.561533218,7,0.094268228,0,0.178992497,0.134923921,0.074036515,0.035945952,1.874647793,0.461174936
1715765393,967632000,16.5138943,47.9758359,198.769,3,199.6609039,9.981945038,12.37456036,0,188.8967743,9,10.47000027,200,37,185,30.41381265,-0.01656297,0.102511711,1.257262349,-0.024584994,0.51582092,-0.035252519,4.76,0.561533218,7,0.094268228,0,0.178992497,0.134923921,0.074036515,0.035945952,1.874647793,0.461174936
1715765394,967832000,16.5139058,47.9758384,198.789,3,199.6668854,9.987920761,12.38053608,0,188.8650818,9,10.47000027,200,38,190,30.82207001,-0.003437363,0.167755023,1.253857255,-0.003891381,0.135379732,-0.009388067,4.46,0.561533218,7,0.094268228,0,0.178992497,0.134923921,0.074036515,0.035945952,1.874647793,0.461174936
1715765394,968032000,16.5139165,47.9758407,198.788,3,199.6577148,9.978759766,12.37137508,0,189.0024719,9,10.47000027,200,38,190,30.82207001,-0.008124347,0.167770028,1.252361894,0.002053945,-0.102645367,-0.005522151,4.05,0.561533218,7,0.094268228,0,0.178992497,0.134923921,0.074036515,0.035945952,1.874647793,0.461174936
1715765394,968232000,16.5139259,47.9758429,198.785,3,199.6577148,9.978759766,12.37137508,0,189.0024719,9,10.47000027,200,50,250,35.35533906,-0.00171075,0.14805986,1.251609206,0.085050955,-0.114593409,-0.003606773,3.64,0.528502947,7,0.094268228,0,0.178992497,0.134923921,0.074036515,0.035945952,1.874647793,0.461174936
1715765394,968432000,16.5139344,47.9758448,198.779,3,199.6516876,9.972720146,12.36533546,0,189.4093933,9,10.47000027,200,39,195,31.22498999,0.009287527,0.09241502,1.251298428,0.021525878,-0.328621149,-0.005068645,3.24,0.528502947,7,0.094268228,0,0.178992497,0.134923921,0.074036515,0.035945952,1.874647793,0.461174936
1715765394,968632000,16.5139419,47.9758466,198.772,3,199.6460571,9.96709156,12.35970688,0,189.2059326,9,10.47000027,200,33,165,28.72281323,0.009389811,0.048382647,1.248575926,-0.004484704,-0.15697594,-0.010870334,2.9,0.528502947,7,0.094268228,0,0.178992497,0.134923921,0.074036515,0.035945952,1.874647793,0.461174936
1715765395,968832000,16.5139489,47.9758483,198.763,3,199.6409912,9.962030411,12.35464573,0,189.4120331,9,10.47000027,200,41,205,32.01562119,0.011810117,0.031675793,1.246648073,0.014585369,0.044816136,0.001650554,2.69,0.528502947,7,0.094268228,0,0.178992497,0.134923921,0.074036515,0.035945952,1.874647793,0.461174936
1715765395,969032000,16.5139554,47.9758498,198.773,3,199.6409912,9.962030411,12.35464573,0,189.4120331,9,10.47000027,200,33,165,28.72281323,0.017293707,0.045318596,1.246893167,-0.00950782,0.060456179,0.020029638,2.54,0.528502947,7,0.094268228,0,0.178992497,0.134923921,0.074036515,0.035945952,1.874647793,0.461174936
1715765395,969232000,16.5139614,47.9758512,198.778,3,199.6468353,9.967880249,12.36049557,0,189.3829651,9,10.47000027,200,51,255,35.70714214,0.029235316,0.059986811,1.255809069,0.120618246,0.042061899,0.064885318,2.33,0.514823292,7,0.094268228,0,0.178992497,0.134923921,0.074036515,0.035945952,1.874647793,0.461174936
1715765396,969823000,16.5139786,47.9758546,198.782,3,199.6502228,9.971262932,12.36387825,0,190.1386719,9,10.53999996,591,109,184.4331641,17.66549325,-0.007444626,0.04645744,1.270873904,-0.18133913,-0.030999932,-0.07300657,1.59,0.514823292,8,0.092544937,0,0.144071338,0.156311996,0.18129511,0.029525815,1.178101109,0.475375335
1715765396,969840000,16.5139786,47.9758546,198.782,3,199.6502228,9.971262932,12.36387825,0,190.1386719,9,10.53999996,17,3,176.4705882,101.8853416,-0.007444626,0.04645744,1.270873904,-0.18133913,-0.030999932,-0.07300657,1.59,0.514823292,8,0.092544937,0,0.144071338,0.156311996,0.18129511,0.029525815,1.178101109,0.475375335
1715765396,970032000,16.5139805,47.975855,198.783,3,199.650116,9.971152306,12.36376762,0,189.879715,9,10.53999996,192,30,156.25,28.52721654,-0.017198998,0.044038329,1.266968727,-0.178193048,-0.085742205,-0.071730763,1.52,0.514823292,8,0.092544937,0,0.144071338,0.156311996,0.18129511,0.029525815,1.178101109,0.475375335
1715765396,970232000,16.5139842,47.9758555,198.789,3,199.650116,9.971152306,12.36376762,0,189.879715,9,10.53999996,200,41,205,32.01562119,-0.035425935,0.036131267,1.253755569,-0.027656412,-0.024775263,-0.059105426,1.36,0.493833385,8,0.092544937,0,0.144071338,0.156311996,0.18129511,0.029525815,1.178101109,0.475375335
1715765396,970432000,16.5139873,47.9758562,198.793,3,199.6625824,9.983621597,12.37623692,0,190.0726166,9,10.53999996,200,32,160,28.28427125,-0.03835294,0.032366849,1.244606853,-0.018245371,0.047732715,-0.037552591,1.2,0.493833385,8,0.092544937,0,0.144071338,0.156311996,0.18129511,0.029525815,1.178101109,0.475375335
1715765396,970632000,16.5139901,47.9758569,198.795,3,199.6625824,9.983621597,12.37623692,0,190.0726166,9,10.53999996,200,39,195,31.22498999,-0.017883552,0.038933054,1.241084576,0.214655682,0.060872428,0.004605422,1.07,0.493833385,8,0.092544937,0,0.144071338,0.156311996,0.18129511,0.029525815,1.178101109,0.475375335
1715765397,970832000,16.5139923,47.9758576,198.791,3,199.6697235,9.99075985,12.38337517,0,189.4648895,9,10.53999996,200,34,170,29.15475947,0.022665691,0.032888461,1.246385574,0.180898875,-0.069088511,0.040411144,0.93,0.493833385,8,0.092544937,0,0.144071338,0.156311996,0.18129511,0.029525815,1.178101109,0.475375335
1715765397,971032000,16.5139943,47.9758583,198.789,3,199.6697235,9.99075985,12.38337517,0,189.4648895,9,10.53999996,200,33,165,28.72281323,0.056113958,0.009044936,1.250409365,0.087337717,-0.088595331,0.014682768,0.76,0.493833385,8,0.092544937,0,0.144071338,0.156311996,0.18129511,0.029525815,1.178101109,0.475375335
1715765397,971232000,16.513996,47.9758589,198.779,3,199.6599884,9.981024742,12.37364006,0,189.7634583,9,10.53999996,200,34,170,29.15475947,0.053262923,-0.014338043,1.251697421,-0.056629691,-0.122278139,0.005431781,0.67,0.469974792,8,0.092544937,0,0.144071338,0.156311996,0.18129511,0.029525815,1.178101109,0.475375335
1715765397,971432000,16.5139975,47.9758593,198.768,3,199.6515808,9.972614288,12.36522961,0,189.8744354,9,10.53999996,200,36,180,30,0.047247734,-0.026458833,1.252411485,-0.054262545,-0.120042793,0.0087613,0.61,0.469974792,8,0.092544937,0,0.144071338,0.156311996,0.18129511,0.029525815,1.178101109,0.475375335
1715765397,971632000,16.513999,47.9758596,198.763,3,199.6490479,9.970081329,12.36269665,0,189.8744354,9,10.53999996,200,38,190,30.82207001,0.034097388,-0.024376158,1.254821539,-0.037811067,0.026876904,0.023156766,0.57,0.469974792,8,0.092544937,0,0.144071338,0.156311996,0.18129511,0.029525815,1.178101109,0.475375335
1715765398,971832000,16.5140006,47.9758597,198.764,3,199.6490479,9.970081329,12.36269665,0,189.8744354,9,10.53999996,200,36,180,30,0.022293419,-0.015207497,1.257151842,-0.10264127,0.074446313,0.009675323,0.6,0.469974792,8,0.092544937,0,0.144071338,0.156311996,0.18129511,0.029525815,1.178101109,0.475375335
1715765398,972332000,16.5140044,47.97586,198.758,3,199.65065,9.971683502,12.36429882,0,190.0594025,9,10.51000023,500,109,218,20.88061302,-0.006802494,0.00055577,1.262250543,0.009359062,0.105649315,0.108690411,0.41,0.463097663,9,0.114487628,0,0.13282655,0.119464917,0.274841437,0.022485363,0.338411283,0.480090096
1715765398,972432000,16.5140044,47.97586,198.758,3,199.65065,9.971683502,12.36429882,0,190.0594025,9,10.51000023,100,16,160,40,0.001157763,0.024683531,1.289497972,0.132744774,0.350951225,0.383793235,0.41,0.463097663,9,0.114487628,0,0.13282655,0.119464917,0.274841437,0.022485363,0.338411283,0.480090096
1715765398,972632000,16.5140054,47.9758599,198.758,3,199.6519775,9.973016739,12.36563206,0,190.0488281,9,10.51000023,200,34,170,29.15475947,0.025007628,0.090183847,1.378269315,0.149419829,0.521122217,0.615822136,0.33,0.463097663,9,0.114487628,0,0.13282655,0.119464917,0.274841437,0.022485363,0.338411283,0.480090096
1715765399,972832000,16.5140059,47.9758597,198.764,3,199.6550598,9.976092339,12.36870766,0,189.9272919,9,10.51000023,200,45,225,33.54101966,0.100831814,0.193245605,1.517548203,0.330832958,0.612532735,0.736435592,0.2,0.463097663,9,0.114487628,0,0.13282655,0.119464917,0.274841437,0.022485363,0.338411283,0.480090096
1715765399,973032000,16.5140055,47.9758592,198.764,3,199.6587677,9.979804039,12.37241936,0,190.0488281,9,10.51000023,200,42,210,32.40370349,0.217523634,0.271687001,1.692861676,0.413528621,0.391566098,0.796659708,0.43,0.463097663,9,0.114487628,0,0.13282655,0.119464917,0.274841437,0.022485363,0.338411283,0.480090096
1715765399,973232000,16.5140035,47.975858,198.766,3,199.6587677,9.979804039,12.37241936,0,190.0488281,9,10.51000023,200,37,185,30.41381265,0.350125998,0.262481183,1.868210793,0.398318708,0.088514559,0.822368145,1.14,0.468065626,9,0.114487628,0,0.13282655,0.119464917,0.274841437,0.022485363,0.338411283,0.480090096
1715765399,973432000,16.5139998,47.9758561,198.755,3,199.6545715,9.975605965,12.36822128,0,189.6524811,9,10.51000023,200,37,185,30.41381265,0.431005448,0.178562909,2.027659893,0.105477795,-0.211118296,0.923863351,1.97,0.468065626,9,0.114487628,0,0.13282655,0.119464917,0.274841437,0.022485363,0.338411283,0.480090096
1715765399,973632000,16.5139941,47.9758531,198.741,3,199.6395569,9.960597038,12.35321236,0,189.9589996,9,10.51000023,200,50,250,35.35533906,0.445398152,0.066013835,2.158904314,-0.060328662,-0.238383174,0.801191986,2.91,0.468065626,9,0.114487628,0,0.13282655,0.119464917,0.274841437,0.022485363,0.338411283,0.480090096
1715765400,973832000,16.5139866,47.9758489,198.725,3,199.6351776,9.956210136,12.34882545,0,190.0435486,9,10.51000023,200,29,145,26.92582404,0.427398622,-0.023179112,2.298868656,-0.195698842,0.052676369,0.851588368,3.82,0.468065626,9,0.114487628,0,0.13282655,0.119464917,0.274841437,0.022485363,0.338411283,0.480090096
1715765400,974032000,16.5139775,47.9758438,198.704,3,199.620224,9.941259384,12.3338747,0,190.2681427,9,10.51000023,200,46,230,33.91164992,0.318961918,-0.085399561,2.454390526,-0.710080624,0.023145135,0.846669078,4.62,0.468065626,9,0.114487628,0,0.13282655,0.119464917,0.274841437,0.022485363,0.338411283,0.480090096
1715765400,974232000,16.513967,47.9758377,198.697,3,199.6218719,9.942903519,12.33551884,0,189.7687378,9,10.51000023,200,40,200,31.6227766,0.153960645,-0.095180601,2.620514393,-0.737360418,0.221751958,0.77660346,5.27,0.462228099,9,0.114487628,0,0.13282655,0.119464917,0.274841437,0.022485363,0.338411283,0.480090096
1715765400,974432000,16.5139558,47.9758312,198.722,3,199.6218719,9.942903519,12.33551884,0,189.7687378,9,10.51000023,200,38,190,30.82207001,-0.010983276,-0.047457587,2.794746876,-0.649449289,0.419107378,0.824656069,5.58,0.462228099,9,0.114487628,0,0.13282655,0.119464917,0.274841437,0.022485363,0.338411283,0.480090096
1715765401,974844000,16.5139284,47.9758154,198.815,3,199.70047,10.02151489,12.41413021,0,189.1240234,9,10.47000027,412,96,233.0097087,23.78145381,-0.133154258,0.063565232,-3.086279154,0.083860867,-0.11511676,0.809650362,5.13,0.462228099,10,0.12781982,0,0.139665519,0.054985814,0.295180988,0.027032112,0.886086331,0.478239743
1715765401,975032000,16.5139234,47.9758125,198.819,3,199.7248688,10.04591084,12.43852615,0,189.1821594,9,10.47000027,188,39,207.4468085,33.21807446,-0.11563611,0.057311542,-3.004027367,0.176764384,-0.084643297,0.807407439,4.91,0.462228099,10,0.12781982,0,0.139665519,0.054985814,0.295180988,0.027032112,0.886086331,0.478239743
1715765401,975232000,16.5139139,47.9758071,198.823,3,199.7238007,10.04484558,12.4374609,0,189.1161041,9,10.47000027,200,37,185,30.41381265,-0.046521928,0.029517775,-2.840714216,0.276119798,-0.322980642,0.766291142,4.6,0.424034351,10,0.12781982,0,0.139665519,0.054985814,0.295180988,0.027032112,0.886086331,0.478239743
1715765401,975432000,16.5139049,47.9758019,198.801,3,199.7133179,10.0343523,12.42696762,0,188.9601898,9,10.47000027,200,53,265,36.40054945,-0.01340295,-0.040032659,-2.677783251,0.189430892,-0.344799578,0.771177173,4.37,0.424034351,10,0.12781982,0,0.139665519,0.054985814,0.295180988,0.027032112,0.886086331,0.478239743
1715765401,975632000,16.513896,47.975797,198.789,3,199.7133179,10.0343523,12.42696762,0,188.9601898,9,10.47000027,200,41,205,32.01562119,0.004411313,-0.107026294,-2.521799803,0.108631462,-0.360313773,0.762685835,4.3,0.424034351,10,0.12781982,0,0.139665519,0.054985814,0.295180988,0.027032112,0.886086331,0.478239743
1715765402,975832000,16.513887,47.975792,198.781,3,199.7072296,10.02826691,12.42088223,0,188.9337769,9,10.47000027,200,30,150,27.38612788,-0.010396584,-0.159133241,-2.375329971,-0.103799812,-0.204846218,0.743737817,4.37,0.424034351,10,0.12781982,0,0.139665519,0.054985814,0.295180988,0.027032112,0.886086331,0.478239743
1715765402,976032000,16.5138776,47.975787,198.777,3,199.7042542,10.02529526,12.41791058,0,189.2508698,9,10.47000027,200,41,205,32.01562119,-0.049652111,-0.172309846,-2.235046625,-0.059481431,0.024280932,0.599937975,4.51,0.424034351,10,0.12781982,0,0.139665519,0.054985814,0.295180988,0.027032112,0.886086331,0.478239743
1715765402,976232000,16.5138679,47.9757819,198.789,3,199.7042542,10.02529526,12.41791058,0,189.2508698,9,10.47000027,200,39,195,31.22498999,-0.090579584,-0.157817706,-2.176621675,-0.168226987,0.07446786,0.067362279,4.65,0.401625611,10,0.12781982,0,0.139665519,0.054985814,0.295180988,0.027032112,0.886086331,0.478239743
1715765402,976432000,16.5138579,47.9757764,198.792,3,199.6944733,10.01551151,12.40812683,0,189.0024719,9,10.47000027,200,42,210,32.40370349,-0.1197538,-0.117844932,-2.184784651,-0.11839024,0.271792561,-0.094083481,4.84,0.401625611,10,0.12781982,0,0.139665519,0.054985814,0.295180988,0.027032112,0.886086331,0.478239743
1715765402,976632000,16.5138479,47.9757707,198.803,3,199.6886444,10.00968933,12.40230465,0,188.8465729,9,10.47000027,200,42,210,32.40370349,-0.125747606,-0.085008107,-2.213931322,0.017370248,0.22381109,-0.139147535,4.93,0.401625611,10,0.12781982,0,0.139665519,0.054985814,0.295180988,0.027032112,0.886086331,0.478239743
1715765403,976832000,16.513838,47.9757647,198.814,3,199.6857147,10.00675774,12.39937305,0,189.1028748,9,10.47000027,200,36,180,30,-0.106031992,-0.063408919,-2.243994951,0.137194484,0.20315665,-0.127214476,4.97,0.401625611,10,0.12781982,0,0.139665519,0.054985814,0.295180988,0.027032112,0.886086331,0.478239743
1715765403,977353000,16.5138096,47.9757465,198.853,3,199.6899109,10.01094151,12.40355682,0,189.0817566,9,10.46000004,521,108,207.293666,19.94684231,-0.022046145,0.149898812,-2.304039478,0.134586394,0.297466069,-0.029050639,4.7,0.396388832,11,0.114977373,0,0.130976613,0.01845369,0.258266612,0.028570765,1.063557857,0.474983048
1715765403,977432000,16.5138096,47.9757465,198.853,3,199.6899109,10.01094151,12.40355682,0,189.0817566,9,10.46000004,79,23,291.1392405,60.70672814,-0.022046145,0.149898812,-2.304039478,0.134586394,0.297466069,-0.029050639,4.7,0.396388832,11,0.114977373,0,0.130976613,0.01845369,0.258266612,0.028570765,1.063557857,0.474983048
1715765403,977632000,16.513801,47.9757409,198.865,3,199.6991577,10.02019024,12.41280556,0,189.2138519,9,10.46000004,200,41,205,32.01562119,-0.008790932,0.177813843,-2.308337927,0.03200506,0.12718907,-0.02343281,4.33,0.396388832,11,0.114977373,0,0.130976613,0.01845369,0.258266612,0.028570765,1.063557857,0.474983048
1715765404,977831000,16.5137932,47.9757359,198.873,3,199.6983795,10.01941967,12.41203499,0,189.2614288,9,10.46000004,199,48,241.2060302,34.81509161,-0.017262267,0.186549485,-2.31161809,-0.119199321,-0.058313325,-0.019664325,3.92,0.396388832,11,0.114977373,0,0.130976613,0.01845369,0.258266612,0.028570765,1.063557857,0.474983048
1715765404,978031000,16.5137862,47.9757316,198.876,3,199.6983795,10.01941967,12.41203499,0,189.2614288,9,10.46000004,200,44,220,33.1662479,-0.034483228,0.14086464,-2.314291239,-0.086132906,-0.352981985,-0.007353235,3.45,0.396388832,11,0.114977373,0,0.130976613,0.01845369,0.258266612,0.028570765,1.063557857,0.474983048
1715765404,978231000,16.51378,47.9757278,198.864,3,199.6968536,10.01788712,12.41050243,0,189.4860229,9,10.46000004,200,41,205,32.01562119,-0.049752932,0.061179999,-2.310479641,-0.047503829,-0.376053244,0.015399331,3.07,0.400005647,11,0.114977373,0,0.130976613,0.01845369,0.258266612,0.028570765,1.063557857,0.474983048
1715765404,978431000,16.5137743,47.9757244,198.852,3,199.696167,10.01721191,12.40982723,0,189.6022797,9,10.46000004,200,27,135,25.98076211,-0.054741595,0.012329815,-2.303068399,-0.032917548,-0.18753846,0.031336673,2.78,0.400005647,11,0.114977373,0,0.130976613,0.01845369,0.258266612,0.028570765,1.063557857,0.474983048
1715765404,978631000,16.5137689,47.9757212,198.837,3,199.6891785,10.01021481,12.40283012,0,189.6709747,9,10.46000004,200,47,235,34.278273,-0.05073227,-0.007830907,-2.295345783,0.013208862,-0.084546007,0.042762868,2.65,0.400005647,11,0.114977373,0,0.130976613,0.01845369,0.258266612,0.028570765,1.063557857,0.474983048
1715765405,978831000,16.5137638,47.9757181,198.829,3,199.6891785,10.01021481,12.40283012,0,189.6709747,9,10.46000004,200,34,170,29.15475947,-0.050152294,0.006318837,-2.291851997,-0.002147017,0.101995967,0.016961455,2.55,0.400005647,11,0.114977373,0,0.130976613,0.01845369,0.258266612,0.028570765,1.063557857,0.474983048
1715765405,979031000,16.5137589,47.9757152,198.819,3,199.6820374,10.0030756,12.39569092,0,189.7159119,9,10.46000004,200,33,165,28.72281323,-0.05382435,0.032215808,-2.290103674,0.06174317,0.134173006,0.018162902,2.4,0.400005647,11,0.114977373,0,0.130976613,0.01845369,0.258266612,0.028570765,1.063557857,0.474983048
1715765405,979231000,16.5137543,47.9757125,198.819,3,199.6724091,9.993443489,12.38605881,0,189.766098,9,10.46000004,200,42,210,32.40370349,-0.055485662,0.047643643,-2.288215637,-0.053045265,0.116738275,0.003668908,2.24,0.386714962,11,0.114977373,0,0.130976613,0.01845369,0.258266612,0.028570765,1.063557857,0.474983048
1715765405,979431000,16.5137501,47.97571,198.817,3,199.6633301,9.98436451,12.37697983,0,190.1677399,9,10.46000004,200,39,195,31.22498999,-0.04642928,0.063967027,-2.286404133,0.070839413,0.059679139,0.012433205,2.06,0.386714962,11,0.114977373,0,0.130976613,0.01845369,0.258266612,0.028570765,1.063557857,0.474983048
1715765406,979864000,16.5137413,47.9757047,198.788,3,199.6507416,9.971775055,12.36439037,0,189.8163147,9,10.63000011,433,78,180.1385681,20.39667637,-0.059547283,-0.059378114,-2.281335831,-0.087687992,-0.380676478,-0.000986534,1.63,0.386714962,12,0.089104075,0,0.099427558,0.023912475,0.234335408,0.02561755,0.707944413,0.473073715
1715765406,980031000,16.5137398,47.9757037,198.787,3,199.6507416,9.971775055,12.36439037,0,189.8163147,9,10.63000011,167,22,131.7365269,28.08632192,-0.060734145,-0.076167054,-2.280319214,-0.007138515,-0.354195923,0.00630191,1.57,0.386714962,12,0.089104075,0,0.099427558,0.023912475,0.234335408,0.02561755,0.707944413,0.473073715
1715765406,980231000,16.5137364,47.9757018,198.776,3,199.6482086,9.969250679,12.361866,0,190.1096039,9,10.63000011,200,28,140,26.45751311,-0.061764535,-0.176781714,-2.280881643,-0.042743996,-0.619496047,-0.048557933,1.69,0.378293286,12,0.089104075,0,0.099427558,0.023912475,0.234335408,0.02561755,0.707944413,0.473073715
1715765406,980431000,16.5137328,47.9756995,198.762,3,199.6482086,9.969250679,12.361866,0,190.1096039,9,10.63000011,200,33,165,28.72281323,-0.05920421,-0.263919175,-2.275885105,0.023338564,-0.061432194,0.03158801,1.93,0.378293286,12,0.089104075,0,0.099427558,0.023912475,0.234335408,0.02561755,0.707944413,0.473073715
1715765406,980631000,16.5137284,47.9756969,198.757,3,199.6542206,9.975263596,12.36787891,0,189.7925262,9,10.63000011,200,33,165,28.72281323,-0.048659891,-0.214173928,-2.269706488,0.095582671,0.552166998,0.063659303,2.31,0.378293286,12,0.089104075,0,0.099427558,0.023912475,0.234335408,0.02561755,0.707944413,0.473073715
1715765407,980831000,16.5137233,47.9756938,198.766,3,199.6434021,9.964441299,12.35705662,0,190.0171204,9,10.63000011,200,33,165,28.72281323,-0.027878586,-0.055958569,-2.259320498,0.069910392,0.862381697,0.091439158,2.62,0.378293286,12,0.089104075,0,0.099427558,0.023912475,0.234335408,0.02561755,0.707944413,0.473073715
1715765407,981031000,16.5137178,47.9756906,198.791,3,199.6468658,9.967902184,12.3605175,0,190.1096039,9,10.63000011,200,25,125,25,-0.035011925,0.124662928,-2.253684759,-0.082012162,0.941237807,-0.004964672,2.72,0.378293286,12,0.089104075,0,0.099427558,0.023912475,0.234335408,0.02561755,0.707944413,0.473073715
1715765407,981231000,16.5137127,47.9756876,198.831,3,199.6468658,9.967902184,12.3605175,0,190.1096039,9,10.63000011,200,32,160,28.28427125,-0.051960867,0.254582584,-2.271778345,0.022816788,0.410978943,-0.086906105,2.42,0.392675879,12,0.089104075,0,0.099427558,0.023912475,0.234335408,0.02561755,0.707944413,0.473073715
1715765407,981431000,16.5137086,47.9756852,198.852,3,199.6719666,9.993006706,12.38562202,0,190.122818,9,10.63000011,200,33,165,28.72281323,-0.030483417,0.27671209,-2.274256945,0.287721157,-0.073398076,0.145210385,1.92,0.392675879,12,0.089104075,0,0.099427558,0.023912475,0.234335408,0.02561755,0.707944413,0.473073715
1715765407,981631000,16.5137054,47.9756834,198.843,3,199.6839294,10.00496578,12.3975811,0,190.334198,9,10.63000011,200,38,190,30.82207001,0.070790127,0.221993864,-2.182955265,0.553431034,-0.406248569,0.685633719,1.41,0.392675879,12,0.089104075,0,0.099427558,0.023912475,0.234335408,0.02561755,0.707944413,0.473073715
1715765408,981831000,16.5137031,47.9756825,198.828,3,199.687088,10.00812817,12.40074348,0,190.1545258,9,10.63000011,200,30,150,27.38612788,0.216731712,0.116389081,-2.022818565,0.424483031,-0.417936802,0.98260504,0.91,0.392675879,12,0.089104075,0,0.099427558,0.023912475,0.234335408,0.02561755,0.707944413,0.473073715
1715765408,982375000,16.513696,47.9756855,198.759,3,199.6667786,9.987818718,12.38043404,0,189.8929443,9,10.85000038,544,83,152.5735294,16.74712055,0.092323348,-0.23882094,-1.454825759,-0.3258771,-0.240745127,0.891864419,1.63,0.411703368,13,0.076847224,0,0.080862199,0.041841437,0.261736757,0.022077958,0.294066323,0.488692171
1715765408,982431000,16.513696,47.9756855,198.759,3,199.6667786,9.987818718,12.38043404,0,189.8929443,9,10.85000038,56,10,178.5714286,56.46924393,0.092323348,-0.23882094,-1.454825759,-0.3258771,-0.240745127,0.891864419,1.63,0.411703368,13,0.076847224,0,0.080862199,0.041841437,0.261736757,0.022077958,0.294066323,0.488692171
1715765408,982631000,16.5136921,47.9756881,198.756,3,199.6657562,9.986787796,12.37940311,0,190.2470093,9,10.85000038,200,37,185,30.41381265,-0.001910583,-0.261241466,-1.32450974,-0.462420881,0.029360443,0.840412438,2.15,0.411703368,13,0.076847224,0,0.080862199,0.041841437,0.261736757,0.022077958,0.294066323,0.488692171
1715765409,982831000,16.5136872,47.975691,198.765,3,199.6673126,9.988349915,12.38096523,0,189.9537048,9,10.85000038,200,30,150,27.38612788,-0.125604376,-0.182945758,-1.152115583,-0.340505749,0.538123846,0.888670027,2.56,0.411703368,13,0.076847224,0,0.080862199,0.041841437,0.261736757,0.022077958,0.294066323,0.488692171
1715765409,983031000,16.5136813,47.975694,198.786,3,199.6673126,9.988349915,12.38096523,0,189.9537048,9,10.85000038,200,48,240,34.64101615,-0.187198117,-0.026094167,-1.02638638,-0.093765929,0.756696284,0.482018858,2.79,0.411703368,13,0.076847224,0,0.080862199,0.041841437,0.261736757,0.022077958,0.294066323,0.488692171
1715765409,983231000,16.5136747,47.9756965,198.811,3,199.6874695,10.00850868,12.401124,0,189.8929443,9,10.85000038,200,40,200,31.6227766,-0.161243916,0.120621763,-1.010077477,0.267974764,0.621472478,0.039072771,2.82,0.411295745,13,0.076847224,0,0.080862199,0.041841437,0.261736757,0.022077958,0.294066323,0.488692171
1715765409,983431000,16.513668,47.9756984,198.827,3,199.6971893,10.01823425,12.41084957,0,190.0514679,9,10.85000038,200,49,245,35,-0.08264032,0.230854765,-1.031505466,0.464075625,0.454558909,-0.069736272,2.65,0.411295745,13,0.076847224,0,0.080862199,0.041841437,0.261736757,0.022077958,0.294066323,0.488692171
1715765409,983631000,16.5136621,47.9756997,198.836,3,199.7014923,10.0225296,12.41514492,0,190.0778961,9,10.85000038,200,54,270,36.74234614,0.007670618,0.295049489,-1.039983749,0.474956721,0.203895584,0.017173087,2.23,0.411295745,13,0.076847224,0,0.080862199,0.041841437,0.261736757,0.022077958,0.294066323,0.488692171
1715765410,983831000,16.5136574,47.9757006,198.827,3,199.7014923,10.0225296,12.41514492,0,190.0778961,9,10.85000038,200,42,210,32.40370349,0.129257903,0.304699063,-0.987804234,0.562375486,0.099644877,0.474698097,1.66,0.411295745,13,0.076847224,0,0.080862199,0.041841437,0.261736757,0.022077958,0.294066323,0.488692171
1715765410,984031000,16.5136546,47.9757013,198.815,3,199.7036591,10.02470016,12.41731548,0,189.9616394,9,10.85000038,200,39,195,31.22498999,0.261632144,0.271927327,-0.853475332,0.337591738,-0.158158273,0.803409874,0.97,0.411295745,13,0.076847224,0,0.080862199,0.041841437,0.261736757,0.022077958,0.294066323,0.488692171
1715765410,984231000,16.5136538,47.9757021,198.802,3,199.7012939,10.02233315,12.41494846,0,190.3447876,9,10.85000038,200,38,190,30.82207001,0.324551165,0.179733336,-0.698003411,-0.041937672,-0.323799491,0.917785287,0.48,0.406274525,13,0.076847224,0,0.080862199,0.041841437,0.261736757,0.022077958,0.294066323,0.488692171
1715765410,984431000,16.5136551,47.9757031,198.784,3,199.7012939,10.02233315,12.41494846,0,190.3447876,9,10.85000038,200,38,190,30.82207001,0.287991881,0.051567633,-0.542514205,-0.360745996,-0.481668591,0.918586373,0.87,0.406274525,13,0.076847224,0,0.080862199,0.041841437,0.261736757,0.022077958,0.294066323,0.488692171
1715765411,984883000,16.5136644,47.9757076,198.743,3,199.6832428,10.00428009,12.39689541,0,190.45047,9,10.96000004,452,93,205.7522124,21.33551053,0.043296024,-0.265355855,-0.142271101,-0.471223086,-0.401432425,0.611583173,2.16,0.406274525,14,0.097515489,0,0.097033519,0.057339603,0.293583055,0.027052277,0.95000389,0.511262146
1715765411,985031000,16.5136666,47.9757091,198.741,3,199.6931,10.01413536,12.40675068,0,190.1439667,9,10.96000004,148,42,283.7837838,43.7887885,-0.019616224,-0.293209314,-0.097706944,-0.584754586,-0.224171996,0.32571131,2.31,0.406274525,14,0.097515489,0,0.097033519,0.057339603,0.293583055,0.027052277,0.95000389,0.511262146
1715765411,985231000,16.5136709,47.9757126,198.746,3,199.6931,10.01413536,12.40675068,0,190.1439667,9,10.96000004,200,34,170,29.15475947,-0.141694382,-0.269898713,-0.074267797,-0.51986438,0.365872324,0.018257985,2.57,0.40146613,14,0.097515489,0,0.097033519,0.057339603,0.293583055,0.027052277,0.95000389,0.511262146
1715765411,985431000,16.5136744,47.9757169,198.754,3,199.6936951,10.01472569,12.407341,0,190.30513,9,10.96000004,200,41,205,32.01562119,-0.2254574,-0.159484714,-0.101183511,-0.349035472,0.715939224,-0.042206902,2.78,0.40146613,14,0.097515489,0,0.097033519,0.057339603,0.293583055,0.027052277,0.95000389,0.511262146
1715765411,985631000,16.5136768,47.9757218,198.758,3,199.6968384,10.01787758,12.4104929,0,190.3949738,9,10.96000004,200,43,215,32.78719262,-0.256679028,-0.019045537,-0.139015138,-0.106695153,0.661967635,0.004548662,2.86,0.40146613,14,0.097515489,0,0.097033519,0.057339603,0.293583055,0.027052277,0.95000389,0.511262146
1715765412,985831000,16.5136779,47.9757266,198.765,3,199.6995392,10.0205822,12.41319752,0,190.2628632,9,10.96000004,200,28,140,26.45751311,-0.262605697,0.09189406,-0.162731946,0.079418913,0.541130304,0.05113247,2.67,0.40146613,14,0.097515489,0,0.097033519,0.057339603,0.293583055,0.027052277,0.95000389,0.511262146
1715765412,986031000,16.5136776,47.9757311,198.767,3,199.6970978,10.0181427,12.41075802,0,190.3738251,9,10.96000004,200,33,165,28.72281323,-0.235605285,0.1855575,-0.174898818,0.238889173,0.408654392,0.058618296,2.39,0.40146613,14,0.097515489,0,0.097033519,0.057339603,0.293583055,0.027052277,0.95000389,0.511262146
1715765412,986231000,16.5136764,47.9757348,198.768,3,199.6970978,10.0181427,12.41075802,0,190.3738251,9,10.96000004,200,46,230,33.91164992,-0.152484804,0.268746674,-0.179079279,0.530926585,0.382659912,0.056806613,2.02,0.39471136,14,0.097515489,0,0.097033519,0.057339603,0.293583055,0.027052277,0.95000389,0.511262146
1715765412,986431000,16.5136745,47.9757375,198.758,3,199.6897888,10.01083088,12.4034462,0,190.1466064,9,10.96000004,200,36,180,30,-0.04750286,0.338737577,-0.177890047,0.535108566,0.292777747,0.024828121,1.52,0.39471136,14,0.097515489,0,0.097033519,0.057339603,0.293583055,0.027052277,0.95000389,0.511262146
1715765412,986631000,16.5136726,47.975739,198.744,3,199.6897888,10.01083088,12.4034462,0,190.1466064,9,10.96000004,200,34,170,29.15475947,0.035177566,0.35491842,-0.174336746,0.265303046,0.014783643,0.011715041,0.97,0.39471136,14,0.097515489,0,0.097033519,0.057339603,0.293583055,0.027052277,0.95000389,0.511262146
1715765413,986831000,16.5136711,47.9757392,198.73,3,199.677063,9.99809742,12.39071274,0,190.0594025,9,10.96000004,200,33,165,28.72281323,0.061236378,0.337334365,-0.172754586,0.02348247,-0.182906121,0.009942351,0.5,0.39471136,14,0.097515489,0,0.097033519,0.057339603,0.293583055,0.027052277,0.95000389,0.511262146
1715765413,987395000,16.5136706,47.9757328,198.7,3,199.6589813,9.980015755,12.37263107,0,189.7132721,9,10.82999992,564,119,210.9929078,19.34168815,-0.01715152,-0.042957194,-0.173415691,-0.05785219,-0.565790892,-0.019427158,1.42,0.388015806,15,0.149944746,0,0.118253459,0.065798087,0.255983647,0.026483636,0.895296116,0.522024631
1715765413,987431000,16.5136706,47.9757328,198.7,3,199.6668854,9.987927437,12.38054276,0,189.8823547,9,10.82999992,36,8,222.2222222,78.56742013,-0.01715152,-0.042957194,-0.173415691,-0.05785219,-0.565790892,-0.019427158,1.42,0.388015806,15,0.149944746,0,0.118253459,0.065798087,0.255983647,0.026483636,0.895296116,0.522024631
1715765413,987631000,16.5136708,47.9757316,198.701,3,199.6668854,9.987927437,12.38054276,0,189.8823547,9,10.82999992,200,34,170,29.15475947,-0.017520454,-0.096393973,-0.175484613,0.017142719,-0.460342348,-0.03408812,1.39,0.388015806,15,0.149944746,0,0.118253459,0.065798087,0.255983647,0.026483636,0.895296116,0.522024631
1715765414,987831000,16.513671,47.9757293,198.705,3,199.6668854,9.987927437,12.38054276,0,189.8823547,9,10.82999992,200,28,140,26.45751311,-0.006954676,-0.149498492,-0.182342738,-0.024666145,-0.006168819,-0.041827925,1.21,0.388015806,15,0.149944746,0,0.118253459,0.065798087,0.255983647,0.026483636,0.895296116,0.522024631
1715765414,988031000,16.5136711,47.9757276,198.717,3,199.6801758,10.0012064,12.39382172,0,190.1386719,9,10.82999992,200,24,120,24.49489743,-0.012339666,-0.097728923,-0.187010854,-0.049199905,0.431351095,-0.006006258,0.9,0.388015806,15,0.149944746,0,0.118253459,0.065798087,0.255983647,0.026483636,0.895296116,0.522024631
